title_city,city_id_partner,title_county,county_id_partner,lat,long,
Andrijevica,1,Andrijevica,1,42.7332835,19.7926528,
Andželati,2,Andrijevica,1,42.738881,19.785763,
Božići,3,Andrijevica,1,42.738881,19.785763,
Bojovići,4,Andrijevica,1,42.5795247,19.8049312,
Gnjili Potok,5,Andrijevica,1,42.743721,19.7212198,
Gračanica,6,Andrijevica,1,42.743721,19.7212198,
Dulipolje,7,Andrijevica,1,42.6951529,19.7494943,
Đulići,8,Andrijevica,1,42.694292,19.7904204,
Zabrđe,9,Andrijevica,1,42.7640754,19.7814908,
Jošanica,10,Andrijevica,1,42.688821,19.7256841,
Košutići,11,Andrijevica,1,42.6961285,19.7703291,
Kralje,12,Andrijevica,1,42.738881,19.785763,
Kuti,13,Andrijevica,1,42.738881,19.785763,
Gornje Luge,14,Andrijevica,1,42.738881,19.785763,
Rijeka Marsenića,15,Andrijevica,1,42.738881,19.785763,
Oblo Brdo,16,Andrijevica,1,42.738881,19.785763,
Prisoja,17,Andrijevica,1,42.738881,19.785763,
Seoca,18,Andrijevica,1,42.738881,19.785763,
Sjenožeta,19,Andrijevica,1,42.738881,19.785763,
Slatina,20,Andrijevica,1,42.738881,19.785763,
Trepča,21,Andrijevica,1,42.7768305,19.8216749,
Trešnjevo,22,Andrijevica,1,42.767386,19.8023267,
Ulotina,23,Andrijevica,1,42.738881,19.785763,
Cecuni,24,Andrijevica,1,42.693877,19.806584,
Arbnež,25,Bar,2,42.0721796,19.3441176,
Bar,26,Bar,2,42.0912106,19.089904,
Bartula,27,Bar,2,42.0838581,19.1463836,
Besa,28,Bar,2,42.1472342,19.2244264,
Bjeliši,29,Bar,2,42.0948716,19.1032801,
Bobovište,30,Bar,2,42.1165922,19.2705151,
Boljevići,31,Bar,2,42.091726,19.090263,
Braćeni,32,Bar,2,42.091726,19.090263,
Brijege,33,Bar,2,42.091726,19.090263,
Brca,34,Bar,2,42.091726,19.090263,
Bukovik,35,Bar,2,42.091726,19.090263,
Burtaiši,36,Bar,2,42.091726,19.090263,
Velembusi,37,Bar,2,42.091726,19.090263,
Veliki Mikulići,38,Bar,2,42.091726,19.090263,
Veliki Ostros,39,Bar,2,42.0792343,19.3173517,
Velja Gorana,40,Bar,2,41.9913195,19.2344614,
Velje Selo,41,Bar,2,42.0345455,19.1969241,
Virpazar,42,Bar,2,42.238938,19.089904,
Gluhi Do,43,Bar,2,42.2088603,19.0572086,
Godinje,44,Bar,2,42.2225201,19.1092252,
Gornja Briska,45,Bar,2,42.1158375,19.2199664,
Gornji Brčeli,46,Bar,2,42.2416667,19.0116667,
Gornji Murići,47,Bar,2,42.1513582,19.2006405,
Grdovići,48,Bar,2,42.0848835,19.3225561,
Gurza,49,Bar,2,42.091726,19.090263,
Dabezići,50,Bar,2,42.091726,19.090263,
Dedići,51,Bar,2,42.091726,19.090263,
Dobra Voda,52,Bar,2,42.091726,19.090263,
Donja Briska,53,Bar,2,42.091726,19.090263,
Donji Brčeli,54,Bar,2,42.091726,19.090263,
Donji Murići,55,Bar,2,42.091726,19.090263,
Dračevica,56,Bar,2,42.091726,19.090263,
Dupilo,57,Bar,2,42.091726,19.090263,
Đenđinovići,58,Bar,2,42.154366,19.0520073,
Đuravci,59,Bar,2,42.1737686,19.1898629,
Đurmani,60,Bar,2,42.1632985,19.0208008,
Zagrađe,61,Bar,2,42.1468258,19.0230298,
Zaljevo,62,Bar,2,42.091726,19.090263,
Zankovići,63,Bar,2,42.1507481,19.0557225,
Zgrade,64,Bar,2,42.1513856,19.0416049,
Zupci,65,Bar,2,42.137708,19.1107114,
Karanikići,66,Bar,2,42.1845475,19.175741,
Komarno,67,Bar,2,42.2885218,19.0609239,
Koštanjica,68,Bar,2,42.091726,19.090263,
Krnjice,69,Bar,2,42.091726,19.090263,
Kruševica,70,Bar,2,42.091726,19.090263,
Kunje,71,Bar,2,42.091726,19.090263,
Livari,72,Bar,2,42.091726,19.090263,
Limljani,73,Bar,2,42.091726,19.090263,
Lukići,74,Bar,2,42.091726,19.090263,
Mala Gorana,75,Bar,2,42.091726,19.090263,
Mali Mikulići,76,Bar,2,42.091726,19.090263,
Mali Ostros,77,Bar,2,42.091726,19.090263,
Marstijepovići,78,Bar,2,42.1935713,19.1683085,
Martići,79,Bar,2,42.0899632,19.3002521,
Mačuge,80,Bar,2,42.2314165,19.0315742,
Miljevci,81,Bar,2,42.1467457,19.0720699,
Mišići,82,Bar,2,42.1672107,19.0118851,
Ovtočići,83,Bar,2,42.091726,19.090263,
Orahovo,84,Bar,2,42.243075,19.06241,
Papani,85,Bar,2,42.091726,19.090263,
Pelinkovići,86,Bar,2,42.091726,19.090263,
Pečurice,87,Bar,2,42.0305612,19.1716531,
Pinčići,88,Bar,2,42.1402179,19.1961808,
Podi,89,Bar,2,42.091726,19.090263,
Polje,90,Bar,2,42.0806423,19.0958489,
Popratnica,91,Bar,2,42.091726,19.090263,
Seoca,92,Bar,2,42.218428,19.140372,
Sozina,93,Bar,2,42.1944109,19.0517306,
Sotonići,94,Bar,2,42.2327527,19.0497782,
Stari Bar,95,Bar,2,42.0963895,19.1359789,
Sustaš,96,Bar,2,42.091726,19.090263,
Sutomore,97,Bar,2,42.091726,19.090263,
Tejani,98,Bar,2,42.091726,19.090263,
Tomba,99,Bar,2,42.091726,19.090263,
Tomići,100,Bar,2,42.091726,19.090263,
Trnovo,101,Bar,2,42.091726,19.090263,
Tuđemili,102,Bar,2,42.091726,19.090263,
Turčini,103,Bar,2,42.091726,19.090263,
Utrg,104,Bar,2,42.091726,19.090263,
Ckla,105,Bar,2,42.0824799,19.361883,
Čeluga,106,Bar,2,42.0865131,19.1240882,
Šušanj,107,Bar,2,42.1227311,19.0869316,
Brajkovača,108,Žabljak,3,43.1011766,19.337426,
Virak,109,Žabljak,3,43.1183285,19.1077389,
Vrela,110,Žabljak,3,43.1568007,19.2162498,
Gomile,111,Žabljak,3,43.046393,19.3262735,
Gradina,112,Žabljak,3,43.0236111,19.3697222,
Dobri Nugo,113,Žabljak,3,43.1018418,19.2028704,
Žabljak,114,Žabljak,3,43.1555152,19.1226018,
Zminica,115,Žabljak,3,43.154573,19.123157,
Krš,116,Žabljak,3,43.154573,19.123157,
Motički Gaj,117,Žabljak,3,43.154573,19.123157,
Ninkovići,118,Žabljak,3,43.154573,19.123157,
Novakovići,119,Žabljak,3,43.154573,19.123157,
Njegovuđa,120,Žabljak,3,43.154573,19.123157,
Palež,121,Žabljak,3,43.154573,19.123157,
Pašina Voda,122,Žabljak,3,43.154573,19.123157,
Pašino Polje,123,Žabljak,3,43.154573,19.123157,
Pitomine,124,Žabljak,3,43.1576873,19.1032801,
Podgora,125,Žabljak,3,42.317,19.158,
Pošćenski Kraj,126,Žabljak,3,43.1005218,19.1092252,
Rasova,127,Žabljak,3,43.0088889,19.2702778,
Rudanci,128,Žabljak,3,43.0614063,19.3508093,
Suvodo,129,Žabljak,3,43.1380293,19.2065868,
Tepačko Polje,130,Žabljak,3,43.1642726,19.1597614,
Tepca,131,Žabljak,3,43.2067061,19.0765283,
Mala Crna Gora,132,Žabljak,3,43.2067996,19.0081703,
Šljivansko,133,Žabljak,3,43.1282645,19.2995086,
Šumanovac,134,Žabljak,3,43.154573,19.123157,
Borje,135,Žabljak,3,43.154573,19.123157,
Bare,136,Šavnik,4,42.957797,19.094365,
Boan,137,Šavnik,4,42.957797,19.094365,
Godijelji,138,Šavnik,4,42.957797,19.094365,
Gornja Bijela,139,Šavnik,4,42.957797,19.094365,
Gornja Bukovica,140,Šavnik,4,42.957797,19.094365,
Grabovica,141,Šavnik,4,42.957797,19.094365,
Dobra Sela,142,Šavnik,4,42.957797,19.094365,
Donja Bijela,143,Šavnik,4,42.957797,19.094365,
Donja Bukovica,144,Šavnik,4,42.957797,19.094365,
Dubrovsko,145,Šavnik,4,43.0134314,18.9754812,
Duži,146,Šavnik,4,42.981294,19.0260018,
Komarnica,147,Šavnik,4,43.0051913,19.0609239,
Krnja Jela,148,Šavnik,4,42.9226783,19.2965349,
Malinsko,149,Šavnik,4,42.936679,19.1553021,
Miloševići,150,Šavnik,4,42.9151117,19.089904,
Mljetičak,151,Šavnik,4,42.9763973,19.1359789,
Mokro,152,Šavnik,4,42.9369768,19.0720699,
Petnjica,153,Šavnik,4,42.982839,19.0817299,
Pošćenje,154,Šavnik,4,42.9741292,19.0676114,
Previš,155,Šavnik,4,42.957797,19.094365,
Pridvorica,156,Šavnik,4,42.957797,19.094365,
Provalija,157,Šavnik,4,42.957797,19.094365,
Slatina,158,Šavnik,4,42.957797,19.094365,
Strug,159,Šavnik,4,42.957797,19.094365,
Timar,160,Šavnik,4,42.957797,19.094365,
Tušina,161,Šavnik,4,42.957797,19.094365,
Šavnik,162,Šavnik,4,42.957797,19.094365,
Azane,163,Berane,5,42.844994,19.874457,
Babino,164,Berane,5,42.844994,19.874457,
Bastahe,165,Berane,5,42.8642316,19.7956294,
Beran Selo,166,Berane,5,42.8570631,19.8648385,
Bor,167,Berane,5,42.9475858,20.0181673,
Bubanje,168,Berane,5,42.95756,19.8335818,
Budimlja,169,Berane,5,42.8639546,19.8916313,
Buče,170,Berane,5,42.8197222,19.8527778,
Veliđe,171,Berane,5,42.862975,19.841768,
Vinicka,172,Berane,5,42.844994,19.874457,
Vrševo,173,Berane,5,42.9443517,19.9586179,
Vuča,174,Berane,5,42.8978514,19.7911645,
Glavaca,175,Berane,5,42.844994,19.874457,
Godočelje,176,Berane,5,42.844994,19.874457,
Goražde,177,Berane,5,42.844994,19.874457,
Gornja Vrbica,178,Berane,5,42.844994,19.874457,
Gornje Zaostro,179,Berane,5,42.844994,19.874457,
Dapsići,180,Berane,5,42.844994,19.874457,
Dašča Rijeka,181,Berane,5,42.844994,19.874457,
Dobrodole,182,Berane,5,42.844994,19.874457,
Dolac,183,Berane,5,42.8413889,19.8516667,
Donja Vrbica,184,Berane,5,42.8847515,19.9839257,
Donja Ržanica,185,Berane,5,42.8076355,19.8722809,
Donje Zaostro,186,Berane,5,42.8827745,19.8474187,
Dragosava,187,Berane,5,42.895321,19.8931198,
Zagorje,188,Berane,5,42.820133,19.9005624,
Zagrad,189,Berane,5,42.9235198,19.7852115,
Zagrađe,190,Berane,5,42.8694118,19.9392655,
Berane,191,Berane,5,42.845,19.8744444,
Javorova,192,Berane,5,42.9290338,20.0494328,
Johovica,193,Berane,5,42.844994,19.874457,
Jašovići,194,Berane,5,42.844994,19.874457,
Kalica,195,Berane,5,42.844994,19.874457,
Kaludra,196,Berane,5,42.844994,19.874457,
Krušča,197,Berane,5,42.844994,19.874457,
Kurikuće,198,Berane,5,42.844994,19.874457,
Lagatori,199,Berane,5,42.844994,19.874457,
Lazi,200,Berane,5,42.844994,19.874457,
Lubnice,201,Berane,5,42.844994,19.874457,
Donje Luge,202,Berane,5,42.844994,19.874457,
Lužac,203,Berane,5,42.8335767,19.845489,
Lješnica,204,Berane,5,42.919298,19.9094937,
Mašte,205,Berane,5,42.878554,19.8886542,
Mezgalji,206,Berane,5,42.844994,19.874457,
Murovac,207,Berane,5,42.915536,20.046455,
Orah,208,Berane,5,42.7491535,19.893864,
Orahovo,209,Berane,5,42.844994,19.874457,
Pahulj,210,Berane,5,42.844994,19.874457,
Petnjik,211,Berane,5,42.8333333,19.9,
Petnjica,212,Berane,5,42.9069016,19.9586179,
Pešca,213,Berane,5,42.844994,19.874457,
Ponor,214,Berane,5,42.844994,19.874457,
Poroče,215,Berane,5,42.844994,19.874457,
Praćevac,216,Berane,5,42.844994,19.874457,
Radmanci,217,Berane,5,42.844994,19.874457,
Radmuževići,218,Berane,5,42.844994,19.874457,
Rovca,219,Berane,5,42.844994,19.874457,
Rujišta,220,Berane,5,42.844994,19.874457,
Savin Bor,221,Berane,5,42.844994,19.874457,
Skakavac,222,Berane,5,42.9064598,19.8670712,
Tmušići,223,Berane,5,42.839493,19.9556406,
Trpezi,224,Berane,5,42.8993445,20.0003019,
Tucanje,225,Berane,5,42.9299408,19.9347996,
Crvljevine,226,Berane,5,42.9147283,19.8536753,
Crni Vrh,227,Berane,5,42.852862,19.8549597,
Štitari,228,Berane,5,42.943516,19.8335818,
Bajice,229,Cetinje,6,42.401311,18.8982264,
Barjamovica,230,Cetinje,6,42.5006674,18.9798458,
Bijele Poljane,231,Cetinje,6,42.6069942,18.8852282,
Bjeloši,232,Cetinje,6,42.390914,18.913992,
Bobija,233,Cetinje,6,42.390914,18.913992,
Boguti,234,Cetinje,6,42.390914,18.913992,
Bokovo,235,Cetinje,6,42.390914,18.913992,
Velestovo,236,Cetinje,6,42.5272906,18.9639663,
Vignjevići,237,Cetinje,6,42.3863889,18.925,
Vojkovići,238,Cetinje,6,42.4582801,18.8737159,
Vrba,239,Cetinje,6,42.3802778,18.9686111,
Vrela,240,Cetinje,6,42.3273551,18.9279381,
Vuči Do,241,Cetinje,6,42.4669894,18.8573765,
Gadji,242,Cetinje,6,42.2862216,19.0241443,
Gornja Zaljut,243,Cetinje,6,42.3863889,18.925,
Gornji Ceklin,244,Cetinje,6,42.358602,18.9814245,
Grab,245,Cetinje,6,42.3863889,18.925,
Gradina,246,Cetinje,6,42.390914,18.913992,
Gradjani,247,Cetinje,6,42.390914,18.913992,
Dide,248,Cetinje,6,42.5030337,18.8449366,
Dobrska Župa,249,Cetinje,6,42.3895606,19.0534934,
Dobrsko Selo,250,Cetinje,6,42.3782768,18.9635949,
Dodoši,251,Cetinje,6,42.3280957,19.1363505,
Donja Zaljut,252,Cetinje,6,42.5378593,18.7871987,
Donje Selo,253,Cetinje,6,42.3824636,18.9286809,
Dragomi Do,254,Cetinje,6,42.4824026,18.8285983,
Drušići,255,Cetinje,6,42.3561244,19.0891609,
Dubovik,256,Cetinje,6,42.4128702,18.8826287,
Dubovo,257,Cetinje,6,42.3863889,18.925,
Dugi Do,258,Cetinje,6,42.390914,18.913992,
Dujeva,259,Cetinje,6,42.390914,18.913992,
Djalci,260,Cetinje,6,42.390914,18.913992,
Djinovići,261,Cetinje,6,42.4134308,18.9921969,
Erakovići,262,Cetinje,6,42.4347651,18.8306406,
Žabljak,263,Cetinje,6,42.317,19.158,
Žanjev Do,264,Cetinje,6,42.4177782,18.7961094,
Zabrdje,265,Cetinje,6,42.368134,18.936109,
Zagora,266,Cetinje,6,42.4100544,19.0653822,
Začir,267,Cetinje,6,42.3441798,18.996283,
Izvori,268,Cetinje,6,42.3863889,18.925,
Jankovići,269,Cetinje,6,42.376578,19.028045,
Jezer,270,Cetinje,6,42.4929017,18.8042778,
Kobilji Do,271,Cetinje,6,42.390914,18.913992,
Kopito,272,Cetinje,6,42.390914,18.913992,
Kosijeri,273,Cetinje,6,42.390914,18.913992,
Kranji Do,274,Cetinje,6,42.390914,18.913992,
Kućišta,275,Cetinje,6,42.390914,18.913992,
Lastva,276,Cetinje,6,42.390914,18.913992,
Lipa,277,Cetinje,6,42.390914,18.913992,
Lješev Stub,278,Cetinje,6,42.390914,18.913992,
Majstori,279,Cetinje,6,42.390914,18.913992,
Malošin Do,280,Cetinje,6,42.5052284,18.905097,
Markovina,281,Cetinje,6,42.5463486,19.0029696,
Meterizi,282,Cetinje,6,42.3804876,19.0579517,
Mikulići,283,Cetinje,6,42.4527189,18.9687951,
Milijevići,284,Cetinje,6,42.446769,18.8855996,
Mužovići,285,Cetinje,6,42.3863889,18.925,
Njeguši,286,Cetinje,6,42.4337817,18.8102186,
Obzovica,287,Cetinje,6,42.3137333,18.9346235,
Ožegovice,288,Cetinje,6,42.3863889,18.925,
Oćevići,289,Cetinje,6,42.3863889,18.925,
Očinići,290,Cetinje,6,42.390914,18.913992,
Pačaradje,291,Cetinje,6,42.390914,18.913992,
Pejovići,292,Cetinje,6,42.390914,18.913992,
Petrov Do,293,Cetinje,6,42.390914,18.913992,
Poda,294,Cetinje,6,42.390914,18.913992,
Podbukovica,295,Cetinje,6,42.390914,18.913992,
Prevlaka,296,Cetinje,6,42.390914,18.913992,
Prediš,297,Cetinje,6,42.390914,18.913992,
Prekornica,298,Cetinje,6,42.3863889,18.925,
Prentin Do,299,Cetinje,6,42.3863889,18.925,
Proseni Do,300,Cetinje,6,42.5289968,18.85422,
Radomir,301,Cetinje,6,42.3247222,19.0758333,
Raičevići,302,Cetinje,6,42.427323,18.8272987,
Rvaši,303,Cetinje,6,42.3716223,19.102537,
Resna,304,Cetinje,6,42.4943475,18.8707451,
Ržani Do,305,Cetinje,6,42.5131724,18.8384384,
Rijeka Crnojevića,306,Cetinje,6,42.3552421,19.0252588,
Riječani,307,Cetinje,6,42.3382602,19.0549795,
Rokoči,308,Cetinje,6,42.390914,18.913992,
Smokovci,309,Cetinje,6,42.390914,18.913992,
Tomići,310,Cetinje,6,42.390914,18.913992,
Trešnjevo,311,Cetinje,6,42.390914,18.913992,
Trnjine,312,Cetinje,6,42.390914,18.913992,
Uba,313,Cetinje,6,42.390914,18.913992,
Ubli,314,Cetinje,6,42.390914,18.913992,
Ublice,315,Cetinje,6,42.390914,18.913992,
Ugnji,316,Cetinje,6,42.390914,18.913992,
Ulići,317,Cetinje,6,42.3828746,18.9973975,
Cetinje,318,Cetinje,6,42.3863889,18.925,
Čevo,319,Cetinje,6,42.5452469,18.9160531,
Češljari,320,Cetinje,6,42.3988734,19.0390043,
Šinđon,321,Cetinje,6,42.3582212,19.0442055,
Štitari,322,Cetinje,6,42.440247,19.0208008,
Bare Šumanovića,323,Danilovgrad,7,42.6225938,19.0683545,
Begovina,324,Danilovgrad,7,42.5143633,19.1337494,
Bileća,325,Danilovgrad,7,42.583675,19.14056,
Bobulja,326,Danilovgrad,7,42.5541694,19.1634775,
Bogićevići,327,Danilovgrad,7,42.583675,19.14056,
Boronjina,328,Danilovgrad,7,42.583675,19.14056,
Brajovići,329,Danilovgrad,7,42.583675,19.14056,
Braćani,330,Danilovgrad,7,42.583675,19.14056,
Brijestovo,331,Danilovgrad,7,42.583675,19.14056,
Veleta,332,Danilovgrad,7,42.583675,19.14056,
Vinići,333,Danilovgrad,7,42.583675,19.14056,
Viš,334,Danilovgrad,7,42.583675,19.14056,
Vučica,335,Danilovgrad,7,42.583675,19.14056,
Gorica,336,Danilovgrad,7,42.583675,19.14056,
Gornji Martinići,337,Danilovgrad,7,42.5551871,19.1917211,
Gornji Rsojevići,338,Danilovgrad,7,42.6129005,19.1040232,
Gostilje Brajovićko,339,Danilovgrad,7,42.583675,19.14056,
Gostilje Martinićko,340,Danilovgrad,7,42.583675,19.14056,
Gradina,341,Danilovgrad,7,42.5401186,19.2036137,
Grbe,342,Danilovgrad,7,42.4929042,19.1961808,
Gruda,343,Danilovgrad,7,42.5183708,19.1173997,
Dabojevići,344,Danilovgrad,7,42.6706097,19.0174574,
Daljam,345,Danilovgrad,7,42.4855484,19.1805721,
Danilovgrad,346,Danilovgrad,7,42.5537532,19.1077389,
Do Pješivački,347,Danilovgrad,7,42.583675,19.14056,
Dolovi,348,Danilovgrad,7,42.583675,19.14056,
Donje Selo,349,Danilovgrad,7,42.583675,19.14056,
Donji Martinići,350,Danilovgrad,7,42.583675,19.14056,
Donji Rsojevići,351,Danilovgrad,7,42.583675,19.14056,
Drakovići,352,Danilovgrad,7,42.583675,19.14056,
Djedjezi,353,Danilovgrad,7,42.583675,19.14056,
Đuričkovići,354,Danilovgrad,7,42.583675,19.14056,
Župa,355,Danilovgrad,7,42.583675,19.14056,
Zagorak,356,Danilovgrad,7,42.6195353,19.0312027,
Zagreda,357,Danilovgrad,7,42.583675,19.14056,
Jabuke,358,Danilovgrad,7,42.583675,19.14056,
Jastreb,359,Danilovgrad,7,42.5245493,19.1330062,
Jelenak,360,Danilovgrad,7,42.564555,19.14787,
Jovanovići,361,Danilovgrad,7,42.6040418,19.1125693,
Klikovače,362,Danilovgrad,7,42.583675,19.14056,
Kopito,363,Danilovgrad,7,42.5446079,19.1367221,
Kosić,364,Danilovgrad,7,42.5233172,19.1538157,
Kujava,365,Danilovgrad,7,42.6058347,19.0490352,
Kupinovo,366,Danilovgrad,7,42.583675,19.14056,
Lazarev Krst,367,Danilovgrad,7,42.583675,19.14056,
Lalevići,368,Danilovgrad,7,42.583675,19.14056,
Livade,369,Danilovgrad,7,42.583675,19.14056,
Lubovo,370,Danilovgrad,7,42.583675,19.14056,
Malenza,371,Danilovgrad,7,42.583675,19.14056,
Mandići,372,Danilovgrad,7,42.583675,19.14056,
Mijokusovići,373,Danilovgrad,7,42.583675,19.14056,
Miogost,374,Danilovgrad,7,42.583675,19.14056,
Mokanje,375,Danilovgrad,7,42.4753187,19.0873031,
Mosori,376,Danilovgrad,7,42.583675,19.14056,
Musterovići,377,Danilovgrad,7,42.5242585,19.0471776,
Novo Selo,378,Danilovgrad,7,42.503819,19.1605046,
Orja Luka,379,Danilovgrad,7,42.5638163,19.0802438,
Pitome Loze,380,Danilovgrad,7,42.5105077,19.1560453,
Povrhpoljina,381,Danilovgrad,7,42.5037547,19.0768999,
Podvraće,382,Danilovgrad,7,42.6341488,19.0698406,
Podglavica,383,Danilovgrad,7,42.583675,19.14056,
Požar,384,Danilovgrad,7,42.583675,19.14056,
Poljica,385,Danilovgrad,7,42.583675,19.14056,
Potkula,386,Danilovgrad,7,42.583675,19.14056,
Potočilo,387,Danilovgrad,7,42.583675,19.14056,
Ržišta,388,Danilovgrad,7,42.583675,19.14056,
Rošca,389,Danilovgrad,7,42.583675,19.14056,
Sekulići,390,Danilovgrad,7,42.583675,19.14056,
Sladojevo Kopito,391,Danilovgrad,7,42.583675,19.14056,
Slap,392,Danilovgrad,7,42.583675,19.14056,
Slatina,393,Danilovgrad,7,42.583675,19.14056,
Spuž,394,Danilovgrad,7,42.583675,19.14056,
Sretnja,395,Danilovgrad,7,42.583675,19.14056,
Strahinići,396,Danilovgrad,7,42.5131239,19.1203724,
Tvorilo,397,Danilovgrad,7,42.5978799,19.0609239,
Ćurilac,398,Danilovgrad,7,42.5377139,19.1218587,
Ćurčići,399,Danilovgrad,7,42.5986168,19.003341,
Frutak,400,Danilovgrad,7,42.579638,19.0638961,
Šobaići,401,Danilovgrad,7,42.631093,19.068726,
Šume,402,Danilovgrad,7,42.4468645,19.2363198,
Baošići,403,Herceg Novi,8,42.4489673,18.6235004,
Bijela,404,Herceg Novi,8,42.4573467,18.6442835,
Bijelske Kruševice,405,Herceg Novi,8,42.452959,18.531434,
Djenovići,406,Herceg Novi,8,42.452959,18.531434,
Djurići,407,Herceg Novi,8,42.452959,18.531434,
Žlijebi,408,Herceg Novi,8,42.452959,18.531434,
Zelenika,409,Herceg Novi,8,42.452959,18.531434,
Igalo,410,Herceg Novi,8,42.452959,18.531434,
Jošice,411,Herceg Novi,8,42.452959,18.531434,
Kameno,412,Herceg Novi,8,42.452959,18.531434,
Kruševice,413,Herceg Novi,8,42.452959,18.531434,
Kumbor,414,Herceg Novi,8,42.452959,18.531434,
Kuti,415,Herceg Novi,8,42.4644363,18.587875,
Luštica,416,Herceg Novi,8,42.3957126,18.6294384,
Meljine,417,Herceg Novi,8,42.4560981,18.5596741,
Mojdež,418,Herceg Novi,8,42.4848271,18.4906653,
Mokrine,419,Herceg Novi,8,42.452959,18.531434,
Podi,420,Herceg Novi,8,42.4637707,18.5492848,
Prijevor,421,Herceg Novi,8,42.452959,18.531434,
Provodina,422,Herceg Novi,8,42.452959,18.531434,
Ratiševina,423,Herceg Novi,8,42.4779902,18.5014239,
Sasovići,424,Herceg Novi,8,42.4655408,18.5670952,
Sutorina,425,Herceg Novi,8,42.452959,18.531434,
Sušćepan,426,Herceg Novi,8,42.452959,18.531434,
Trebesinj,427,Herceg Novi,8,42.452959,18.531434,
Ubli,428,Herceg Novi,8,42.452959,18.531434,
Herceg Novi,429,Herceg Novi,8,42.452959,18.531434,
Babljak,430,Kolašin,9,42.823641,19.522527,
Bakovići,431,Kolašin,9,42.823641,19.522527,
Bare,432,Kolašin,9,42.823641,19.522527,
Lipovska Bistrica,433,Kolašin,9,42.823641,19.522527,
Moračka Bistrica,434,Kolašin,9,42.8236111,19.5225,
Blatina,435,Kolašin,9,42.8545789,19.4839187,
Bojići,436,Kolašin,9,42.8236111,19.5225,
Breza,437,Kolašin,9,42.8318352,19.5196188,
Gornja Rovca Bulatovići,438,Kolašin,9,42.8236111,19.5225,
Velje Duboko,439,Kolašin,9,42.7800235,19.2824096,
Višnje,440,Kolašin,9,42.8236111,19.5225,
Vladoš,441,Kolašin,9,42.8135662,19.5166437,
Vlahovići,442,Kolašin,9,42.8236111,19.5225,
Vojkovići,443,Kolašin,9,42.8236111,19.5225,
Vranještica,444,Kolašin,9,42.823641,19.522527,
Vrujica,445,Kolašin,9,42.823641,19.522527,
Gornje Lipovo,446,Kolašin,9,42.823641,19.522527,
Donje Lipovo,447,Kolašin,9,42.823641,19.522527,
Dragovića Polje,448,Kolašin,9,42.823641,19.522527,
Drijenak,449,Kolašin,9,42.823641,19.522527,
Drpe,450,Kolašin,9,42.823641,19.522527,
Dulovine,451,Kolašin,9,42.823641,19.522527,
Djudjevina,452,Kolašin,9,42.823641,19.522527,
Žirci,453,Kolašin,9,42.8236111,19.5225,
Izlasci,454,Kolašin,9,42.8189043,19.5694542,
Jabuka,455,Kolašin,9,42.8236111,19.5225,
Jasenova,456,Kolašin,9,42.8236111,19.5225,
Kolašin,457,Kolašin,9,42.8236111,19.5225,
Kos,458,Kolašin,9,42.7422124,19.4960509,
Bare Kraljske,459,Kolašin,9,42.7471856,19.6192942,
Ljevišta,460,Kolašin,9,42.872456,19.291041,
Liješnje,461,Kolašin,9,42.8236111,19.5225,
Ljuta,462,Kolašin,9,42.6683333,19.2994444,
Mateševo,463,Kolašin,9,42.823641,19.522527,
Medjuriječje,464,Kolašin,9,42.823641,19.522527,
Mioska,465,Kolašin,9,42.823641,19.522527,
Moračko Trebaljevo,466,Kolašin,9,42.823641,19.522527,
Mujića Rečine,467,Kolašin,9,42.823641,19.522527,
Mušovića Rijeka,468,Kolašin,9,42.823641,19.522527,
Osretci,469,Kolašin,9,42.823641,19.522527,
Oćiba,470,Kolašin,9,42.823641,19.522527,
Padež,471,Kolašin,9,42.7590183,19.5386696,
Petrova Ravan,472,Kolašin,9,42.8236111,19.5225,
Plana,473,Kolašin,9,42.8561247,19.5017684,
Ulica,474,Kolašin,9,42.8236111,19.5225,
Požnja,475,Kolašin,9,42.8236111,19.5225,
Pčinja,476,Kolašin,9,42.8236111,19.5225,
Ravni,477,Kolašin,9,42.8236111,19.5225,
Raško,478,Kolašin,9,42.8236111,19.5225,
Radigojno,479,Kolašin,9,42.8407557,19.5322631,
Redice,480,Kolašin,9,42.883435,19.31422,
Rovačko Trebaljevo,481,Kolašin,9,42.823641,19.522527,
Svrke,482,Kolašin,9,42.823641,19.522527,
Sela,483,Kolašin,9,42.823641,19.522527,
Selišta,484,Kolašin,9,42.823641,19.522527,
Sjerogošte,485,Kolašin,9,42.823641,19.522527,
Skrbuša,486,Kolašin,9,42.823641,19.522527,
Smailagića Polje,487,Kolašin,9,42.823641,19.522527,
Smrče,488,Kolašin,9,42.823641,19.522527,
Sreteška Gora,489,Kolašin,9,42.823641,19.522527,
Starče,490,Kolašin,9,42.8236111,19.5225,
Tara,491,Kolašin,9,42.8310796,19.5158365,
Trnovica,492,Kolašin,9,42.8236111,19.5225,
Uvač,493,Kolašin,9,42.8236111,19.5225,
Cerovice,494,Kolašin,9,42.8236111,19.5225,
Crkvine,495,Kolašin,9,42.7965145,19.4467338,
Manastir Morača,496,Kolašin,9,42.7665585,19.3913333,
Mrtvo Duboko,497,Kolašin,9,42.8236111,19.5225,
Ocka Gora,498,Kolašin,9,42.8236111,19.5225,
Raičevina,499,Kolašin,9,42.8236111,19.5225,
Bratešići,500,Kotor,10,42.424664,18.77123,
Veliki Zalazi,501,Kotor,10,42.424664,18.77123,
Višnjeva,502,Kotor,10,42.424664,18.77123,
Vranovići,503,Kotor,10,42.424664,18.77123,
Glavati,504,Kotor,10,42.424664,18.77123,
Glavatičići,505,Kotor,10,42.424664,18.77123,
Gornji Morinj,506,Kotor,10,42.424664,18.77123,
Gornji Orahovac,507,Kotor,10,42.424664,18.77123,
Gornji Stoliv,508,Kotor,10,42.424664,18.77123,
Gorovići,509,Kotor,10,42.3258804,18.7897976,
Dobrota,510,Kotor,10,42.454,18.768,
Donji Morinj,511,Kotor,10,42.4966667,18.5916667,
Donji Orahovac,512,Kotor,10,42.4914497,18.7586113,
Donji Stoliv,513,Kotor,10,42.4697222,18.7111111,
Dragalj,514,Kotor,10,42.6001781,18.6828838,
Dub,515,Kotor,10,42.3868416,18.7649226,
Zagora,516,Kotor,10,42.3053711,18.7422767,
Zvečava,517,Kotor,10,42.5402778,18.6386111,
Kavač,518,Kotor,10,42.4099697,18.7422767,
Knežlaz,519,Kotor,10,42.424664,18.77123,
Kovači,520,Kotor,10,42.424664,18.77123,
Kostanjica,521,Kotor,10,42.424664,18.77123,
Kotor,522,Kotor,10,42.424664,18.77123,
Krimovica,523,Kotor,10,42.424664,18.77123,
Kubasi,524,Kotor,10,42.424664,18.77123,
Lastva Grbaljska,525,Kotor,10,42.424664,18.77123,
Ledenice,526,Kotor,10,42.424664,18.77123,
Lješevići,527,Kotor,10,42.424664,18.77123,
Mali Zalazi,528,Kotor,10,42.424664,18.77123,
Malov Do,529,Kotor,10,42.424664,18.77123,
Mirac,530,Kotor,10,42.3833333,18.7833333,
Muo,531,Kotor,10,42.4255556,18.7544444,
Nalježići,532,Kotor,10,42.3732,18.7755,
Pelinovo,533,Kotor,10,42.3630855,18.7771743,
Perast,534,Kotor,10,42.4899244,18.7185184,
Pištet,535,Kotor,10,42.5230556,18.6194444,
Pobrdje,536,Kotor,10,42.3500622,18.7452466,
Prijeradi,537,Kotor,10,42.424664,18.77123,
Prčanj,538,Kotor,10,42.424664,18.77123,
Radanovići,539,Kotor,10,42.424664,18.77123,
Risan,540,Kotor,10,42.424664,18.77123,
Strp,541,Kotor,10,42.424664,18.77123,
Sutvara,542,Kotor,10,42.424664,18.77123,
Han,543,Kotor,10,42.424664,18.77123,
Čavori,544,Kotor,10,42.424664,18.77123,
Šišići,545,Kotor,10,42.424664,18.77123,
Bigova,546,Kotor,10,42.424664,18.77123,
Bunovići,547,Kotor,10,42.424664,18.77123,
Dražin Vrt,548,Kotor,10,42.4845782,18.7326247,
Kolužunj,549,Kotor,10,42.424664,42.424664,18.77123
Trešnjica,550,Kotor,10,42.3385433,18.7571263,
Ukropci,551,Kotor,10,42.3395803,18.747474,
Lipci,552,Kotor,10,42.4999931,18.6517064,
Unijerina,553,Kotor,10,42.424664,18.77123,
Špiljari,554,Kotor,10,42.4200603,18.780887,
Škaljari,555,Kotor,10,42.4186111,18.7663889,
Bistrica,556,Mojkovac,11,42.992481,19.4333478,
Gojakovići,557,Mojkovac,11,42.9901206,19.4965622,
Dobrilovina,558,Mojkovac,11,42.958668,19.581689,
Žari,559,Mojkovac,11,42.958668,19.581689,
Lepenac,560,Mojkovac,11,42.958668,19.581689,
Mojkovac,561,Mojkovac,11,42.958668,19.581689,
Podbišće,562,Mojkovac,11,42.958668,19.581689,
Stevanovac,563,Mojkovac,11,42.958668,19.581689,
Štitarica,564,Mojkovac,11,42.958668,19.581689,
Bjelojevići,565,Mojkovac,11,42.958668,19.581689,
Bojna Njiva,566,Mojkovac,11,42.958611,19.581667,
Brskovo,567,Mojkovac,11,42.945,19.6288889,
Prošćenje,568,Mojkovac,11,43.003979,19.494331,
Uroševina,569,Mojkovac,11,42.9802138,19.5819229,
Polja,570,Mojkovac,11,42.9714013,19.5345926,
Balosave,571,Nikšić,12,42.755912,18.6071717,
Bare,572,Nikšić,12,42.6225938,19.0683545,
Bastaji,573,Nikšić,12,42.7363817,19.082473,
Bjeloševina,574,Nikšić,12,42.72007,19.1359789,
Bobotovo Groblje,575,Nikšić,12,43.0332186,18.6554178,
Bogetići,576,Nikšić,12,42.77329,18.944139,
Bogmilovići,577,Nikšić,12,42.77329,18.944139,
Brezovik,578,Nikšić,12,42.77329,18.944139,
Brestice,579,Nikšić,12,42.77329,18.944139,
Broćanac Viluški,580,Nikšić,12,42.77329,18.944139,
Broćanac Nikšićki,581,Nikšić,12,42.77329,18.944139,
Bršno,582,Nikšić,12,42.77329,18.944139,
Bubrežak,583,Nikšić,12,42.77329,18.944139,
Busak,584,Nikšić,12,42.77329,18.944139,
Vasiljevići,585,Nikšić,12,42.7249969,19.1211155,
Velimlje,586,Nikšić,12,42.8200476,18.6361186,
Vidne,587,Nikšić,12,42.8100164,18.4847297,
Vilusi,588,Nikšić,12,42.7281725,18.5930702,
Vir,589,Nikšić,12,42.8496471,18.9234812,
Vitasojevići,590,Nikšić,12,42.625091,18.9936828,
Višnjića Do,591,Nikšić,12,43.0333062,18.7348521,
Vraćenovići,592,Nikšić,12,42.8408357,18.4943751,
Vrbica,593,Nikšić,12,42.9355489,18.4914073,
Vučji Do,594,Nikšić,12,42.8867503,18.5242152,
Gvozd,595,Nikšić,12,42.77329,18.944139,
Gornja Trepča,596,Nikšić,12,42.77329,18.944139,
Gornje Polje,597,Nikšić,12,42.77329,18.944139,
Gornje Crkvice,598,Nikšić,12,42.77329,18.944139,
Gornje Čarađe,599,Nikšić,12,42.77329,18.944139,
Goslić,600,Nikšić,12,42.77329,18.944139,
Gradačka Poljana,601,Nikšić,12,42.8838597,19.073556,
Granice,602,Nikšić,12,42.8314888,18.9814245,
Grahovac,603,Nikšić,12,42.6863844,18.6168204,
Grahovo,604,Nikšić,12,42.6514472,18.6730028,
Dolovi,605,Nikšić,12,42.7101448,18.5737743,
Donja Trepča,606,Nikšić,12,42.8212321,18.7756892,
Donje Crkvice,607,Nikšić,12,42.9558494,18.5388958,
Donje Čaradje,608,Nikšić,12,43.0187287,18.6717487,
Dragovoljići,609,Nikšić,12,42.7732108,19.043091,
Drenoštica,610,Nikšić,12,42.6533353,18.9925684,
Dubočke,611,Nikšić,12,42.77329,18.944139,
Duga,612,Nikšić,12,42.77329,18.944139,
Dučice,613,Nikšić,12,42.77329,18.944139,
Zavrh,614,Nikšić,12,42.77329,18.944139,
Zagora,615,Nikšić,12,42.77329,18.944139,
Zagrad,616,Nikšić,12,42.77329,18.944139,
Zaljutnica,617,Nikšić,12,42.77329,18.944139,
Zaslap,618,Nikšić,12,42.77329,18.944139,
Zlostup,619,Nikšić,12,42.77329,18.944139,
Ivanje,620,Nikšić,12,42.8289268,19.0323172,
Jabuke,621,Nikšić,12,42.6987593,18.6854821,
Javljem,622,Nikšić,12,42.9926836,18.7355945,
Jasenovo Polje,623,Nikšić,12,42.8957072,18.9635949,
Jugovići,624,Nikšić,12,42.7206988,19.0913902,
Kazanci,625,Nikšić,12,43.0579557,18.6687794,
Kamensko,626,Nikšić,12,42.7868099,18.7318822,
Klenak,627,Nikšić,12,42.8176395,18.5626425,
Kovači,628,Nikšić,12,42.9683487,18.5033798,
Koprivice,629,Nikšić,12,42.8961885,18.6053162,
Koravlica,630,Nikšić,12,42.77329,18.944139,
Kunak,631,Nikšić,12,42.77329,18.944139,
Kuside,632,Nikšić,12,42.77329,18.944139,
Kuta,633,Nikšić,12,42.77329,18.944139,
Laz,634,Nikšić,12,42.77329,18.944139,
Liverovići,635,Nikšić,12,42.77329,18.944139,
Lukovo,636,Nikšić,12,42.77329,18.944139,
Macavare,637,Nikšić,12,42.77329,18.944139,
Medjedje,638,Nikšić,12,42.77329,18.944139,
Milojevići,639,Nikšić,12,42.6351096,18.9955401,
Miločani,640,Nikšić,12,42.8277672,18.9034258,
Miljanići,641,Nikšić,12,42.8500049,18.6331496,
Miruše,642,Nikšić,12,42.8252156,18.439474,
Mokri Do,643,Nikšić,12,42.8944103,18.6439124,
Morakovo,644,Nikšić,12,42.712052,19.1686802,
Nikšić,645,Nikšić,12,42.78,18.94,
Nudo,646,Nikšić,12,42.672574,18.57229,
Oblatno,647,Nikšić,12,42.7603587,19.0698406,
Ozrinići,648,Nikšić,12,42.7516212,19.0007407,
Orah,649,Nikšić,12,42.77329,18.944139,
Orlina,650,Nikšić,12,42.77329,18.944139,
Petrovići,651,Nikšić,12,42.77329,18.944139,
Pilatovci,652,Nikšić,12,42.77329,18.944139,
Povija,653,Nikšić,12,42.77329,18.944139,
Podbožur,654,Nikšić,12,42.77329,18.944139,
Podvrš,655,Nikšić,12,42.77329,18.944139,
Ponikvica,656,Nikšić,12,42.77329,18.944139,
Počekovići,657,Nikšić,12,42.8058384,18.5062468,
Praga,658,Nikšić,12,42.8815197,19.0222868,
Prigradina,659,Nikšić,12,42.8210864,18.6509641,
Prisoje,660,Nikšić,12,43.067759,18.6651922,
Rastovac,661,Nikšić,12,42.8334922,18.9353663,
Riđani,662,Nikšić,12,42.7671065,18.8930271,
Riječani,663,Nikšić,12,42.7554403,18.6591293,
Rudine,664,Nikšić,12,42.7462886,18.7029279,
Sjenokosi,665,Nikšić,12,42.8497772,18.8744587,
Smrduša,666,Nikšić,12,42.7941467,18.7058974,
Somina,667,Nikšić,12,42.77329,18.944139,
Spila,668,Nikšić,12,42.77329,18.944139,
Srijede,669,Nikšić,12,42.77329,18.944139,
Staro Selo,670,Nikšić,12,42.77329,18.944139,
Stuba,671,Nikšić,12,42.77329,18.944139,
Stubica,672,Nikšić,12,42.77329,18.944139,
Tupan,673,Nikšić,12,42.77329,18.944139,
Ubli,674,Nikšić,12,42.77329,18.944139,
Carine,675,Nikšić,12,42.77329,18.944139,
Cerovo,676,Nikšić,12,42.9877778,18.705,
Crnodoli,677,Nikšić,12,42.7925374,18.8752014,
Šipačno,678,Nikšić,12,42.8728928,18.9457661,
Štedim,679,Nikšić,12,42.7750591,18.8982264,
Štitari,680,Nikšić,12,43.0234573,18.7341096,
Bogajići,681,Plav,13,42.59557,19.945012,
Brezojevica,682,Plav,13,42.6174923,19.9228908,
Velika,683,Plav,13,42.6602637,19.9467087,
Višnjevo,684,Plav,13,42.5659427,19.8886542,
Vojno Selo,685,Plav,13,42.5776097,19.9154479,
Vusanje,686,Plav,13,42.59557,19.945012,
Gornja Rženica,687,Plav,13,42.59557,19.945012,
Grnčar,688,Plav,13,42.59557,19.945012,
Gusinje,689,Plav,13,42.59557,19.945012,
Dolja,690,Plav,13,42.59557,19.945012,
Dosudje,691,Plav,13,42.59557,19.945012,
Djurička Rijeka,692,Plav,13,42.59557,19.945012,
Kolenovići,693,Plav,13,42.59557,19.945012,
Kruševo,694,Plav,13,42.59557,19.945012,
Martinovići,695,Plav,13,42.5872114,19.9128429,
Mašnica,696,Plav,13,42.59557,19.945012,
Meteh,697,Plav,13,42.6281052,19.9943469,
Murino,698,Plav,13,42.6616854,19.8834445,
Novšići,699,Plav,13,42.59557,19.945012,
Plav,700,Plav,13,42.595556,19.945,
Prnjavor,701,Plav,13,42.5987038,19.9519189,
Skić,702,Plav,13,42.6091006,19.9400098,
Hoti,703,Plav,13,42.5577544,19.9601066,
Alići,704,Pljevlja,14,43.36,19.36,
Boščinovići,705,Pljevlja,14,43.359993,19.359988,
Beljkovići,706,Pljevlja,14,43.359993,19.359988,
Bjeloševina,707,Pljevlja,14,43.359993,19.359988,
Bobovo,708,Pljevlja,14,43.359993,19.359988,
Boljanići,709,Pljevlja,14,43.359993,19.359988,
Borišići,710,Pljevlja,14,43.359993,19.359988,
Borova,711,Pljevlja,14,43.359993,19.359988,
Borovica,712,Pljevlja,14,43.36,19.36,
Brda,713,Pljevlja,14,43.3883333,19.1727778,
Bujaci,714,Pljevlja,14,43.36,19.36,
Burići,715,Pljevlja,14,43.36,19.36,
Bušnje,716,Pljevlja,14,43.36,19.36,
Varine,717,Pljevlja,14,43.36,19.36,
Vaškovo,718,Pljevlja,14,43.36,19.36,
Velike Krće,719,Pljevlja,14,43.36,19.36,
Vidre,720,Pljevlja,14,43.36,19.36,
Vijenac,721,Pljevlja,14,43.388365,19.094566,
Vilići,722,Pljevlja,14,43.359993,19.359988,
Višnjica,723,Pljevlja,14,43.359993,19.359988,
Vodno,724,Pljevlja,14,43.359993,19.359988,
Vojtina,725,Pljevlja,14,43.359993,19.359988,
Vrba,726,Pljevlja,14,43.359993,19.359988,
Vrbica,727,Pljevlja,14,43.359993,19.359988,
Vrulja,728,Pljevlja,14,43.359993,19.359988,
Vukšići,729,Pljevlja,14,43.359993,19.359988,
Geuši,730,Pljevlja,14,43.359993,19.359988,
Glibaći,731,Pljevlja,14,43.2262194,19.2534171,
Glisnica,732,Pljevlja,14,43.36,19.36,
Gornja Brvenica,733,Pljevlja,14,43.36,19.36,
Gornje Selo,734,Pljevlja,14,43.36,19.36,
Gotovuša,735,Pljevlja,14,43.36,19.36,
Gradac,736,Pljevlja,14,43.3937726,19.1541252,
Gradina,737,Pljevlja,14,43.1059804,19.3433741,
Grevo,738,Pljevlja,14,43.36,19.36,
Donja Brvenica,739,Pljevlja,14,43.386997,19.241093,
Dragaši,740,Pljevlja,14,43.266667,19.266667,
Dubac,741,Pljevlja,14,43.359993,19.359988,
Dubočica,742,Pljevlja,14,43.359993,19.359988,
Dubrava,743,Pljevlja,14,43.359993,19.359988,
Dužice,744,Pljevlja,14,43.359993,19.359988,
Durutovići,745,Pljevlja,14,43.359993,19.359988,
Đuli,746,Pljevlja,14,43.359993,19.359988,
Đurđevića Tara,747,Pljevlja,14,43.359993,19.359988,
Židovići,748,Pljevlja,14,43.359993,19.359988,
Zabrđe,749,Pljevlja,14,43.359993,19.359988,
Zaselje,750,Pljevlja,14,43.36,19.36,
Zbljevo,751,Pljevlja,14,43.36,19.36,
Zekavice,752,Pljevlja,14,43.36,19.36,
Zenica,753,Pljevlja,14,43.36,19.36,
Zorlovići,754,Pljevlja,14,43.36,19.36,
Jabuka,755,Pljevlja,14,43.35,19.5166667,
Jagodni Do,756,Pljevlja,14,43.36,19.36,
Jasen,757,Pljevlja,14,43.36,19.36,
Jahovići,758,Pljevlja,14,43.36,19.36,
Jugovo,759,Pljevlja,14,43.36,19.36,
Kakmuži,760,Pljevlja,14,43.359993,19.359988,
Kalušići,761,Pljevlja,14,43.359993,19.359988,
Katun,762,Pljevlja,14,43.359993,19.359988,
Klakorina,763,Pljevlja,14,43.359993,19.359988,
Kovači,764,Pljevlja,14,43.359993,19.359988,
Kovačevići,765,Pljevlja,14,43.359993,19.359988,
Kozica,766,Pljevlja,14,43.359993,19.359988,
Komine,767,Pljevlja,14,43.359993,19.359988,
Kordovina,768,Pljevlja,14,43.359993,19.359988,
Kosanica,769,Pljevlja,14,43.1954121,19.3195822,
Kotlajići,770,Pljevlja,14,43.36,19.36,
Kotline,771,Pljevlja,14,43.36,19.36,
Kotorac,772,Pljevlja,14,43.36,19.36,
Košare,773,Pljevlja,14,43.36,19.36,
Kržava,774,Pljevlja,14,43.36,19.36,
Krćevina,775,Pljevlja,14,43.36,19.36,
Krupice,776,Pljevlja,14,43.36,19.36,
Kruševo,777,Pljevlja,14,43.2780382,19.2772057,
Kukavica,778,Pljevlja,14,43.36,19.36,
Ladjana,779,Pljevlja,14,43.359993,19.359988,
Lever Tara,780,Pljevlja,14,43.359993,19.359988,
Leovo Brdo,781,Pljevlja,14,43.359993,19.359988,
Lijeska,782,Pljevlja,14,43.359993,19.359988,
Lugovi,783,Pljevlja,14,43.359993,19.359988,
Ljutići,784,Pljevlja,14,43.359993,19.359988,
Ljuće,785,Pljevlja,14,43.359993,19.359988,
Male Krće,786,Pljevlja,14,43.359993,19.359988,
Maoče,787,Pljevlja,14,43.359993,19.359988,
Mataruge,788,Pljevlja,14,43.265419,19.463417,
Madžari,789,Pljevlja,14,43.36,19.36,
Meljak,790,Pljevlja,14,43.3475911,19.1619911,
Metaljka,791,Pljevlja,14,43.538586,19.156478,
Mijakovići,792,Pljevlja,14,43.2313185,19.3842692,
Milakovići,793,Pljevlja,14,43.36,19.36,
Milunići,794,Pljevlja,14,43.36,19.36,
Mironići,795,Pljevlja,14,43.36,19.36,
Moraice,796,Pljevlja,14,43.261874,19.130661,
Moćevići,797,Pljevlja,14,43.36,19.36,
Mrzovići,798,Pljevlja,14,43.359993,19.359988,
Mrčevo,799,Pljevlja,14,43.359993,19.359988,
Mrčići,800,Pljevlja,14,43.359993,19.359988,
Nange,801,Pljevlja,14,43.359993,19.359988,
Obarde,802,Pljevlja,14,43.359993,19.359988,
Ogradjenica,803,Pljevlja,14,43.359993,19.359988,
Orlja,804,Pljevlja,14,43.359993,19.359988,
Otilovići,805,Pljevlja,14,43.359993,19.359988,
Odžak,806,Pljevlja,14,43.359993,19.359988,
Petine,807,Pljevlja,14,43.4167174,19.0551075,
Pauče,808,Pljevlja,14,43.3066667,19.2925,
Pižure,809,Pljevlja,14,43.36,19.36,
Plakala,810,Pljevlja,14,43.36,19.36,
Planjsko,811,Pljevlja,14,43.36,19.36,
Pliješevina,812,Pljevlja,14,43.343404,19.2162498,
Pliješ,813,Pljevlja,14,43.3447222,19.3433333,
Pljevlja,814,Pljevlja,14,43.36,19.36,
Poblaće,815,Pljevlja,14,43.36,19.36,
Podborova,816,Pljevlja,14,43.36,19.36,
Popov Do,817,Pljevlja,14,43.359993,19.359988,
Potkovač,818,Pljevlja,14,43.359993,19.359988,
Potkrajci,819,Pljevlja,14,43.359993,19.359988,
Potoci,820,Pljevlja,14,43.359993,19.359988,
Potpeće,821,Pljevlja,14,43.359993,19.359988,
Potrlica,822,Pljevlja,14,43.359993,19.359988,
Pračica,823,Pljevlja,14,43.359993,19.359988,
Premćani,824,Pljevlja,14,43.359993,19.359988,
Prehari,825,Pljevlja,14,43.359993,19.359988,
Prisoji,826,Pljevlja,14,43.36,19.36,
Prošće,827,Pljevlja,14,43.36,19.36,
Pušanjski Do,828,Pljevlja,14,43.36,19.36,
Rabitlje,829,Pljevlja,14,43.3112542,19.3835256,
Rađevići,830,Pljevlja,14,43.36,19.36,
Romač,831,Pljevlja,14,43.36,19.36,
Rudnica,832,Pljevlja,14,43.36,19.36,
Rujevica,833,Pljevlja,14,43.4913889,19.0819444,
Selac,834,Pljevlja,14,43.36,19.36,
Selišta,835,Pljevlja,14,43.36,19.36,
Sirčići,836,Pljevlja,14,43.359993,19.359988,
Slatina,837,Pljevlja,14,43.359993,19.359988,
Srećanje,838,Pljevlja,14,43.359993,19.359988,
Stančani,839,Pljevlja,14,43.359993,19.359988,
Stranice,840,Pljevlja,14,43.359993,19.359988,
Strahov Do,841,Pljevlja,14,43.359993,19.359988,
Tvrdakovići,842,Pljevlja,14,43.359993,19.359988,
Trnovice,843,Pljevlja,14,43.359993,19.359988,
Uremovići,844,Pljevlja,14,43.359993,19.359988,
Horevina,845,Pljevlja,14,43.36,19.36,
Hoćevina,846,Pljevlja,14,43.36,19.36,
Cerovci,847,Pljevlja,14,43.3816687,19.1265497,
Crljenice,848,Pljevlja,14,43.36,19.36,
Crni Vrh,849,Pljevlja,14,43.1711111,19.22,
Crno Brdo,850,Pljevlja,14,43.36,19.36,
Crnobori,851,Pljevlja,14,43.36,19.36,
Čavanj,852,Pljevlja,14,43.1666669,19.366667,
Čardak,853,Pljevlja,14,43.483333,19.066667,
Čerjenci,854,Pljevlja,14,43.36,19.36,
Čestin,855,Pljevlja,14,43.359993,19.359988,
Šljivansko,856,Pljevlja,14,43.359993,19.359988,
Šljuke,857,Pljevlja,14,43.359993,19.359988,
Šula,858,Pljevlja,14,43.359993,19.359988,
Šumani,859,Pljevlja,14,43.359993,19.359988,
Paljevine,860,Pljevlja,14,43.359993,19.359988,
Kolijevka,861,Pljevlja,14,43.359993,19.359988,
Tatarovina,862,Pljevlja,14,43.359993,19.359988,
Babići,863,Plužine,15,43.359993,19.359988,
Bajovo Polje,864,Plužine,15,43.016667,18.9,
Barni Do,865,Plužine,15,43.1541366,18.8410376,
Bezuje,866,Plužine,15,43.1541366,18.8410376,
Bojati,867,Plužine,15,43.1541366,18.8410376,
Boričje,868,Plužine,15,43.133333,18.916667,
Borkovići,869,Plužine,15,43.1541366,18.8410376,
Brijeg,870,Plužine,15,43.3459838,18.8700024,
Brljevo,871,Plužine,15,43.1541366,18.8410376,
Bukovac,872,Plužine,15,43.1541366,18.8410376,
Vojinovići,873,Plužine,15,43.1541366,18.8410376,
Goransko,874,Plužine,15,43.154143,18.841037,
Gornja Brezna,875,Plužine,15,43.154143,18.841037,
Donja Brezna,876,Plužine,15,43.154143,18.841037,
Dubljevići,877,Plužine,15,43.154143,18.841037,
Žeično,878,Plužine,15,43.154143,18.841037,
Zabrdje,879,Plužine,15,43.154143,18.841037,
Zukva,880,Plužine,15,43.154143,18.841037,
Jerinići,881,Plužine,15,43.154143,18.841037,
Kneževići,882,Plužine,15,43.2384268,18.9531947,
Kovači,883,Plužine,15,43.1541366,18.8410376,
Lisina,884,Plužine,15,43.1725,18.6911111,
Miloševići,885,Plužine,15,43.1541366,18.8410376,
Miljkovac,886,Plužine,15,43.1541366,18.8410376,
Mratinje,887,Plužine,15,43.250282,18.811302,
Nedajno,888,Plužine,15,43.19595,18.9829103,
Nikovići,889,Plužine,15,43.268199,18.945091,
Osojni Orah,890,Plužine,15,43.1541366,18.8410376,
Pišče,891,Plužine,15,43.1541366,18.8410376,
Plužine,892,Plužine,15,43.154143,18.841037,
Poljana,893,Plužine,15,43.154143,18.841037,
Crkvičko Polje,894,Plužine,15,43.154143,18.841037,
Prisojni Orah,895,Plužine,15,43.154143,18.841037,
Ravno,896,Plužine,15,43.154143,18.841037,
Rudinice,897,Plužine,15,43.154143,18.841037,
Seljani,898,Plužine,15,43.154143,18.841037,
Smriječno,899,Plužine,15,43.154143,18.841037,
Stabna,900,Plužine,15,43.154143,18.841037,
Stolac,901,Plužine,15,43.154143,18.841037,
Stubica,902,Plužine,15,43.1541366,18.8410376,
Trsa,903,Plužine,15,43.1899725,18.9427947,
Unač,904,Plužine,15,43.1541366,18.8410376,
Šarići,905,Plužine,15,43.248989,18.90946,
Arza,906,Podgorica,16,42.4666667,19.2666667,
Balabani,907,Podgorica,16,42.3149211,19.2415233,
Baloči,908,Podgorica,16,42.4592867,19.144154,
Barlaj,909,Podgorica,16,42.3574789,19.4173596,
Begova Glavica,910,Podgorica,16,42.4666667,19.2666667,
Bezjovo,911,Podgorica,16,42.4946058,19.4236805,
Benkaj,912,Podgorica,16,42.442568,19.268656,
Beri,913,Podgorica,16,42.442568,19.268656,
Berislavci,914,Podgorica,16,42.442568,19.268656,
Bigor,915,Podgorica,16,42.442568,19.268656,
Bijelo Polje,916,Podgorica,16,42.442568,19.268656,
Bioče,917,Podgorica,16,42.442568,19.268656,
Bistrice,918,Podgorica,16,42.442568,19.268656,
Blizna,919,Podgorica,16,42.442568,19.268656,
Bolesestra,920,Podgorica,16,42.5901654,19.4177314,
Botun,921,Podgorica,16,42.3819962,19.1969241,
Brežine,922,Podgorica,16,42.3960887,19.118886,
Bridje,923,Podgorica,16,42.3716549,19.1367221,
Brskut,924,Podgorica,16,42.6139767,19.5136686,
Budza,925,Podgorica,16,42.4459622,19.4463619,
Buronji,926,Podgorica,16,42.4305637,19.1029085,
Velje Brdo,927,Podgorica,16,42.4802865,19.2177365,
Veruša,928,Podgorica,16,42.6509834,19.5144123,
Vidijenje,929,Podgorica,16,42.4666667,19.2666667,
Vilac,930,Podgorica,16,42.4666667,19.2666667,
Vladni,931,Podgorica,16,42.3413229,19.2876136,
Vranj,932,Podgorica,16,42.3273832,19.2995086,
Vranjina,933,Podgorica,16,42.2742,19.1356,
Vrbica,934,Podgorica,16,42.4599553,19.349694,
Vukovci,935,Podgorica,16,42.3325731,19.2013838,
Vuksanlekići,936,Podgorica,16,42.4666667,19.2666667,
Golubovci,937,Podgorica,16,42.442568,19.268656,
Goljemadi,938,Podgorica,16,42.442568,19.268656,
Goričani,939,Podgorica,16,42.442568,19.268656,
Gornje Stravče,940,Podgorica,16,42.442568,19.268656,
Gornji Kokoti,941,Podgorica,16,42.442568,19.268656,
Gornji Milješ,942,Podgorica,16,42.442568,19.268656,
Gostilj,943,Podgorica,16,42.442568,19.268656,
Gradac,944,Podgorica,16,42.442568,19.268656,
Grbavci,945,Podgorica,16,42.3683788,19.1865182,
Grbi Do,946,Podgorica,16,42.6338352,19.4846624,
Gurec,947,Podgorica,16,42.3879775,19.3853846,
Delaj,948,Podgorica,16,42.4435502,19.4701599,
Dinoša,949,Podgorica,16,42.4140485,19.3396565,
Dolovi,950,Podgorica,16,42.5330394,19.054608,
Donje Stravče,951,Podgorica,16,42.5817955,19.4653259,
Donji Kokoti,952,Podgorica,16,42.4018973,19.1984106,
Donji Milješ,953,Podgorica,16,42.3924279,19.3277605,
Draževina,954,Podgorica,16,42.4300207,19.1352357,
Drešaj,955,Podgorica,16,42.442568,19.268656,
Drume,956,Podgorica,16,42.442568,19.268656,
Duga,957,Podgorica,16,42.442568,19.268656,
Dučići,958,Podgorica,16,42.442568,19.268656,
Dušići,959,Podgorica,16,42.442568,19.268656,
Duške,960,Podgorica,16,42.442568,19.268656,
Đurkovići,961,Podgorica,16,42.442568,19.268656,
Zagreda,962,Podgorica,16,42.442568,19.268656,
Zaugao,963,Podgorica,16,42.442568,19.268656,
Kiselica,964,Podgorica,16,42.442568,19.268656,
Klopot,965,Podgorica,16,42.5591629,19.3790642,
Kopilje,966,Podgorica,16,42.4666667,19.2666667,
Kornet,967,Podgorica,16,42.4112116,19.1411812,
Kosor,968,Podgorica,16,42.4946751,19.3760899,
Kotrabudan,969,Podgorica,16,42.4666667,19.2666667,
Koći,970,Podgorica,16,42.4666667,19.2666667,
Kržanja,971,Podgorica,16,42.5233554,19.4433872,
Kruse,972,Podgorica,16,42.4331201,19.151586,
Krševo,973,Podgorica,16,42.3930684,19.3630777,
Kurilo,974,Podgorica,16,42.2983852,19.1828019,
Ljajkovići,975,Podgorica,16,42.442568,19.268656,
Lekići,976,Podgorica,16,42.442568,19.268656,
Lijeva Rijeka,977,Podgorica,16,42.442568,19.268656,
Liješnje,978,Podgorica,16,42.442568,19.268656,
Liješta,979,Podgorica,16,42.442568,19.268656,
Lovka,980,Podgorica,16,42.442568,19.268656,
Lopate,981,Podgorica,16,42.442568,19.268656,
Lužnica,982,Podgorica,16,42.442568,19.268656,
Lutovo,983,Podgorica,16,42.442568,19.268656,
Mataguži,984,Podgorica,16,42.3208333,19.2702778,
Mahala,985,Podgorica,16,42.3504297,19.2147632,
Medun,986,Podgorica,16,42.4725,19.3616667,
Mileti,987,Podgorica,16,42.4666667,19.2666667,
Mitrovići,988,Podgorica,16,42.3632234,19.2162498,
Mojanovići,989,Podgorica,16,42.356825,19.2326031,
Momče,990,Podgorica,16,42.5328031,19.4013718,
Mrke,991,Podgorica,16,42.5120842,19.337426,
Mužeška,992,Podgorica,16,42.4666667,19.2666667,
Nabon,993,Podgorica,16,42.3869992,19.4314887,
Nikmaraš,994,Podgorica,16,42.442568,19.268656,
Ožezi,995,Podgorica,16,42.442568,19.268656,
Omerbožovići,996,Podgorica,16,42.442568,19.268656,
Opasanica,997,Podgorica,16,42.442568,19.268656,
Oraovice,998,Podgorica,16,42.442568,19.268656,
Orasi,999,Podgorica,16,42.442568,19.268656,
Orahovo,1000,Podgorica,16,42.442568,19.268656,
Poprat,1001,Podgorica,16,42.442568,19.268656,
Parci,1002,Podgorica,16,42.442568,19.268656,
Pelev Brijeg,1003,Podgorica,16,42.5820149,19.3969102,
Petrovići,1004,Podgorica,16,42.4666667,19.2666667,
Pikalj,1005,Podgorica,16,42.4052758,19.3779488,
Podhum,1006,Podgorica,16,42.3092867,19.3351955,
Ponari,1007,Podgorica,16,42.3176468,19.1813154,
Prisoja,1008,Podgorica,16,42.5322222,18.9516667,
Prifti,1009,Podgorica,16,42.4012841,19.3905897,
Progonovići,1010,Podgorica,16,42.4352682,19.068726,
Radeća,1011,Podgorica,16,42.4666667,19.2666667,
Radovče,1012,Podgorica,16,42.5834586,19.2772057,
Rakića Kuće,1013,Podgorica,16,42.442568,19.268656,
Raći,1014,Podgorica,16,42.442568,19.268656,
Releza,1015,Podgorica,16,42.4666667,19.2666667,
Rijeka Piperska,1016,Podgorica,16,42.4589364,19.265621,
Rudine,1017,Podgorica,16,42.432619,19.4229368,
Selište,1018,Podgorica,16,42.4070894,19.4199623,
Seoca,1019,Podgorica,16,42.4666667,19.2666667,
Seoštica,1020,Podgorica,16,42.5761347,19.4236805,
Sjenice,1021,Podgorica,16,42.9777599,19.5806498,
Skorać,1022,Podgorica,16,42.3680003,19.3894743,
Slacko,1023,Podgorica,16,42.4666667,19.2666667,
Spinja,1024,Podgorica,16,42.3530803,19.3731157,
Srpska,1025,Podgorica,16,42.442568,19.268656,
Staniselići,1026,Podgorica,16,42.442568,19.268656,
Stanjevića Rupa,1027,Podgorica,16,42.442568,19.268656,
Stijena,1028,Podgorica,16,42.442568,19.268656,
Stjepovo,1029,Podgorica,16,42.442568,19.268656,
Stupovi,1030,Podgorica,16,42.442568,19.268656,
Sukuruć,1031,Podgorica,16,42.442568,19.268656,
Podgorica,1032,Podgorica,16,42.442568,19.268656,
Trabojin,1033,Podgorica,16,42.442568,19.268656,
Trmanje,1034,Podgorica,16,42.6475448,19.3444894,
Tuzi,1035,Podgorica,16,42.3655556,19.3313889,
Tuzi Ljevorečke,1036,Podgorica,16,42.4666667,19.2666667,
Ćafa,1037,Podgorica,16,42.4506911,19.1664505,
Ćepetići,1038,Podgorica,16,42.4666667,19.2666667,
Ubalac,1039,Podgorica,16,42.5208763,19.393564,
Ubli,1040,Podgorica,16,42.4902041,19.3965384,
Farmaci,1041,Podgorica,16,42.4124121,19.1924644,
Fundina,1042,Podgorica,16,42.4666667,19.2666667,
Helmnica,1043,Podgorica,16,42.4666667,19.2666667,
Cvilin,1044,Podgorica,16,42.442568,19.268656,
Cijevna,1045,Podgorica,16,42.442568,19.268656,
Crvena Paprat,1046,Podgorica,16,42.442568,19.268656,
Crnci,1047,Podgorica,16,42.442568,19.268656,
Šušunja,1048,Podgorica,16,42.442568,19.268656,
Balotići,1049,Rožaje,17,42.839975,20.159995,
Bandžov,1050,Rožaje,17,42.839975,20.159995,
Bać,1051,Rožaje,17,42.839975,20.159995,
Bašča,1052,Rožaje,17,42.839975,20.159995,
Besnik,1053,Rožaje,17,42.839975,20.159995,
Bijela Crkva,1054,Rožaje,17,42.8742907,20.1953563,
Biševo,1055,Rožaje,17,42.9089963,20.2102481,
Bogaji,1056,Rožaje,17,42.839975,20.159995,
Bukovica,1057,Rožaje,17,42.942222,20.218611,
Vuča,1058,Rožaje,17,42.934995,20.284888,
Gornja Lovnica,1059,Rožaje,17,42.8939683,19.9676487,
Grahovo,1060,Rožaje,17,42.8678506,20.1730192,
Grižice,1061,Rožaje,17,42.839975,20.159995,
Dacići,1062,Rožaje,17,42.8067504,20.1804649,
Donja Lovnica,1063,Rožaje,17,42.8732987,20.133267,
Ibarac,1064,Rožaje,17,42.839975,20.159995,
Jablanica,1065,Rožaje,17,42.839975,20.159995,
Kalače,1066,Rožaje,17,42.839975,20.159995,
Koljeno,1067,Rožaje,17,42.8403702,20.1119679,
Paučina,1068,Rožaje,17,42.967036,20.0768099,
Plumci,1069,Rožaje,17,42.839975,20.159995,
Radetina,1070,Rožaje,17,42.839975,20.159995,
Rožaje,1071,Rožaje,17,42.84,20.16,
Seošnica,1072,Rožaje,17,42.8493644,20.126858,
Sinanovići,1073,Rožaje,17,42.839975,20.159995,
Crnokrpe,1074,Rožaje,17,42.839975,20.159995,
Bogdašići,1075,Tivat,18,42.4281,18.7373,
Bogišići,1076,Tivat,18,42.3972016,18.6806568,
Gornja Lastva,1077,Tivat,18,42.431914,18.71128,
Gošići,1078,Tivat,18,42.431914,18.71128,
Donja Lastva,1079,Tivat,18,42.4430556,18.6886111,
Đuraševići,1080,Tivat,18,42.3947635,18.6880803,
Krasići,1081,Tivat,18,42.4103219,18.6450258,
Lepetani,1082,Tivat,18,42.4671,18.6868,
Milovići,1083,Tivat,18,42.39917,18.6724911,
Mrčevac,1084,Tivat,18,42.4158549,18.7214881,
Radovići,1085,Tivat,18,42.3930103,18.6702641,
Tivat,1086,Tivat,18,42.43,18.7,
Ambula,1087,Ulcinj,19,41.9281813,19.2177365,
Bijela Gora,1088,Ulcinj,19,41.9430556,19.1952778,
Bojke,1089,Ulcinj,19,41.929836,19.224222,
Brajše,1090,Ulcinj,19,41.929836,19.224222,
Bratica,1091,Ulcinj,19,41.929836,19.224222,
Briska Gora,1092,Ulcinj,19,41.9672222,19.2944444,
Vladimir,1093,Ulcinj,19,42.0053684,19.309917,
Gornja Klezna,1094,Ulcinj,19,41.9984877,19.261966,
Gornji Štoj,1095,Ulcinj,19,41.9281813,19.2177365,
Darza,1096,Ulcinj,19,41.9281813,19.2177365,
Donja Klezna,1097,Ulcinj,19,41.9861945,19.279436,
Donji Štoj,1098,Ulcinj,19,41.9281813,19.2177365,
Draginje,1099,Ulcinj,19,41.9281813,19.2177365,
Zoganj,1100,Ulcinj,19,41.9281813,19.2177365,
Kaliman,1101,Ulcinj,19,42.0475,19.2261111,
Kodre,1102,Ulcinj,19,41.929836,19.224222,
Kolonza,1103,Ulcinj,19,41.929836,19.224222,
Kosići,1104,Ulcinj,19,41.929836,19.224222,
Kravari,1105,Ulcinj,19,41.929836,19.224222,
Kruta,1106,Ulcinj,19,41.929836,19.224222,
Krute,1107,Ulcinj,19,41.929836,19.224222,
Kruče,1108,Ulcinj,19,41.929836,19.224222,
Leskovac,1109,Ulcinj,19,41.929836,19.224222,
Lisna Bore,1110,Ulcinj,19,41.9281813,19.2177365,
Međreč,1111,Ulcinj,19,41.9281813,19.2177365,
Mide,1112,Ulcinj,19,42.045512,19.254667,
Možura,1113,Ulcinj,19,41.9747222,19.2083333,
Pistula,1114,Ulcinj,19,41.965761,19.235827,
Rastiš,1115,Ulcinj,19,41.9281813,19.2177365,
Reč,1116,Ulcinj,19,41.9096908,19.3857564,
Salč,1117,Ulcinj,19,41.9738415,19.1991539,
Sveti Đorđe,1118,Ulcinj,19,41.9281813,19.2177365,
Sukobin,1119,Ulcinj,19,42.0123244,19.3589882,
Sutjel,1120,Ulcinj,19,41.929836,19.224222,
Ćurke,1121,Ulcinj,19,41.929836,19.224222,
Ulcinj,1122,Ulcinj,19,41.929836,19.224222,
Fraskanjel,1123,Ulcinj,19,41.929836,19.224222,
Šas,1124,Ulcinj,19,41.929836,19.224222,
Štodra,1125,Ulcinj,19,41.929836,19.224222,
Babaici,1126,Bijelo Polje,20,43.037686,19.747964,
Barice,1127,Bijelo Polje,20,43.037686,19.747964,
Bijedici,1128,Bijelo Polje,20,43.037686,19.747964,
Bliskovo,1129,Bijelo Polje,20,43.037686,19.747964,
Bojista,1130,Bijelo Polje,20,43.0369422,19.7561911,
Boljanina,1131,Bijelo Polje,20,43.0418258,19.80221,
Boturici,1132,Bijelo Polje,20,43.0369422,19.7561911,
Voljavac,1133,Bijelo Polje,20,43.1171169,19.7844674,
Vrh,1134,Bijelo Polje,20,42.975,19.9033333,
Godijevo,1135,Bijelo Polje,20,43,19.895,
Godusa,1136,Bijelo Polje,20,43.0369422,19.7561911,
Grab Bijelo Polje,1137,Bijelo Polje,20,43.207175,19.6346,
Grancarevo,1138,Bijelo Polje,20,43.0369422,19.7561911,
Gubavac,1139,Bijelo Polje,20,43.1054479,19.7844674,
Dobrakovo,1140,Bijelo Polje,20,43.037686,19.747964,
Dobrinje,1141,Bijelo Polje,20,43.037686,19.747964,
Dolac - Bijelo Polje,1142,Bijelo Polje,20,43.037686,19.747964,
Dubovo Bijelo Polje,1143,Bijelo Polje,20,43.037686,19.747964,
Djalovici,1144,Bijelo Polje,20,43.037686,19.747964,
ziljak,1145,Bijelo Polje,20,43.037686,19.747964,
zurena,1146,Bijelo Polje,20,43.037686,19.747964,
Zaton,1147,Bijelo Polje,20,43.037686,19.747964,
Zminac,1148,Bijelo Polje,20,43.037686,19.747964,
Ivanje - BIJELO Polje,1149,Bijelo Polje,20,43.0035565,19.870019,
Jablanovo,1150,Bijelo Polje,20,43.0369422,19.7561911,
Jabucno,1151,Bijelo Polje,20,43.0369422,19.7561911,
Jagoce,1152,Bijelo Polje,20,43.0369422,19.7561911,
Kanje,1153,Bijelo Polje,20,43.0369422,19.7561911,
Kicava,1154,Bijelo Polje,20,43.0369422,19.7561911,
Kovren,1155,Bijelo Polje,20,43.184291,19.5829,
Kostenica,1156,Bijelo Polje,20,43.0369422,19.7561911,
Kostici,1157,Bijelo Polje,20,43.0369422,19.7561911,
Kukulje,1158,Bijelo Polje,20,43.0369422,19.7561911,
Lazovici,1159,Bijelo Polje,20,43.037686,19.747964,
Laholo,1160,Bijelo Polje,20,43.037686,19.747964,
Lekovina,1161,Bijelo Polje,20,43.037686,19.747964,
Lijeska,1162,Bijelo Polje,20,43.037686,19.747964,
Lozna,1163,Bijelo Polje,20,43.037686,19.747964,
Loznica,1164,Bijelo Polje,20,43.037686,19.747964,
Ljesnica - Bijelo Polje,1165,Bijelo Polje,20,43.037686,19.747964,
Majstorovina,1166,Bijelo Polje,20,43.037686,19.747964,
Metanjac,1167,Bijelo Polje,20,43.117939,19.768213,
Milovo,1168,Bijelo Polje,20,43.0369422,19.7561911,
Mioce,1169,Bijelo Polje,20,43.0369422,19.7561911,
Mirojevici,1170,Bijelo Polje,20,43.0369422,19.7561911,
Mojstir,1171,Bijelo Polje,20,43.0369422,19.7561911,
Mokri Lug,1172,Bijelo Polje,20,43.0369422,19.7561911,
Muslici,1173,Bijelo Polje,20,43.0369422,19.7561911,
Negobratina,1174,Bijelo Polje,20,43.0369422,19.7561911,
Nedakusi,1175,Bijelo Polje,20,43.0535045,19.7680967,
Njegnjevo,1176,Bijelo Polje,20,43.0887407,19.7800026,
Obrov,1177,Bijelo Polje,20,43.037686,19.747964,
Okladi,1178,Bijelo Polje,20,43.037686,19.747964,
Orahovica,1179,Bijelo Polje,20,43.037686,19.747964,
Osmanbegovo Selo,1180,Bijelo Polje,20,43.037686,19.747964,
Ostrelj,1181,Bijelo Polje,20,43.037686,19.747964,
Pavino Polje,1182,Bijelo Polje,20,43.037686,19.747964,
Pali,1183,Bijelo Polje,20,43.037686,19.747964,
Pape,1184,Bijelo Polje,20,43.037686,19.747964,
Pecarska,1185,Bijelo Polje,20,43.037686,19.747964,
Pobretici,1186,Bijelo Polje,20,43.0369422,19.7561911,
Poda - Bijelo Polje,1187,Bijelo Polje,20,42.9410343,19.8603732,
Pozeginja,1188,Bijelo Polje,20,43.0369422,19.7561911,
Potkrajci - Bijelo Polje,1189,Bijelo Polje,20,43.0711262,19.7740496,
Potrk,1190,Bijelo Polje,20,43.0383017,19.6044161,
Prijelozi,1191,Bijelo Polje,20,42.9529754,19.7874439,
Pripcici,1192,Bijelo Polje,20,43.0129859,19.7398213,
Ravna Rijeka,1193,Bijelo Polje,20,43.0369422,19.7561911,
Radojeva Glava,1194,Bijelo Polje,20,43.0369422,19.7561911,
Radulici,1195,Bijelo Polje,20,43.0369422,19.7561911,
Rakita,1196,Bijelo Polje,20,43.037686,19.747964,
Rakonje,1197,Bijelo Polje,20,43.037686,19.747964,
Rasovo,1198,Bijelo Polje,20,43.037686,19.747964,
Rastoka,1199,Bijelo Polje,20,43.037686,19.747964,
Resnik,1200,Bijelo Polje,20,43.037686,19.747964,
Rodijelja,1201,Bijelo Polje,20,43.037686,19.747964,
Sadici,1202,Bijelo Polje,20,43.037686,19.747964,
Sela - Bijelo Polje,1203,Bijelo Polje,20,43.037686,19.747964,
Sipanje,1204,Bijelo Polje,20,43.037686,19.747964,
Sokolac,1205,Bijelo Polje,20,43.037686,19.747964,
Srdjevac,1206,Bijelo Polje,20,43.0369422,19.7561911,
Stozer,1207,Bijelo Polje,20,43.119189,19.526415,
Stubo,1208,Bijelo Polje,20,43.0369422,19.7561911,
Tomasevo,1209,Bijelo Polje,20,43.065045,19.639533,
Trubine,1210,Bijelo Polje,20,43.0369422,19.7561911,
Ujnice,1211,Bijelo Polje,20,43.0369422,19.7561911,
Unevine,1212,Bijelo Polje,20,43.0369422,19.7561911,
Femica Krs,1213,Bijelo Polje,20,43.0369422,19.7561911,
Cerovo - Bijelo Polje,1214,Bijelo Polje,20,43.0245809,19.7011308,
Crnis,1215,Bijelo Polje,20,43.0794444,19.7272222,
Crnca - Bijelo Polje,1216,Bijelo Polje,20,43.037686,19.747964,
Crhalj,1217,Bijelo Polje,20,43.037686,19.747964,
Ceoce,1218,Bijelo Polje,20,43.037686,19.747964,
Cokrlije,1219,Bijelo Polje,20,43.037686,19.747964,
Dzafica Brdo,1220,Bijelo Polje,20,43.037686,19.747964,
Sipovice,1221,Bijelo Polje,20,43.037686,19.747964,
Babića brijeg,1222,Bijelo Polje,20,43.037686,19.747964,
Banje selo,1223,Bijelo Polje,20,43.037686,19.747964,
Biokovac,1224,Bijelo Polje,20,43.037686,19.747964,
Bioča,1225,Bijelo Polje,20,42.9313037,19.8559079,
Bistrica,1226,Bijelo Polje,20,43.0687023,19.8395354,
Brestovik,1227,Bijelo Polje,20,43.0369422,19.7561911,
Brzava,1228,Bijelo Polje,20,42.9638131,19.8053033,
Brčve,1229,Bijelo Polje,20,43.0369422,19.7561911,
Vergaševići,1230,Bijelo Polje,20,43.0369422,19.7561911,
Vrbe,1231,Bijelo Polje,20,43.0369422,19.7561911,
Gojevići,1232,Bijelo Polje,20,43.0369422,19.7561911,
Gorice,1233,Bijelo Polje,20,43.0291667,19.6588889,
Gornji dio grada,1234,Bijelo Polje,20,43.0369422,19.7561911,
Dupljaci,1235,Bijelo Polje,20,43.037686,19.747964,
Kaševari,1236,Bijelo Polje,20,43.037686,19.747964,
Kneževići,1237,Bijelo Polje,20,43.037686,19.747964,
Kradenik,1238,Bijelo Polje,20,43.037686,19.747964,
Krstače,1239,Bijelo Polje,20,43.037686,19.747964,
Kruševo,1240,Bijelo Polje,20,43.037686,19.747964,
Livadice,1241,Bijelo Polje,20,43.037686,19.747964,
Lipnica,1242,Bijelo Polje,20,43.037686,19.747964,
Ličine,1243,Bijelo Polje,20,43.037686,19.747964,
Mahala,1244,Bijelo Polje,20,43.037686,19.747964,
Medanovići,1245,Bijelo Polje,20,43.037686,19.747964,
Nikoljac,1246,Bijelo Polje,20,43.0288212,19.7427976,
Ograde,1247,Bijelo Polje,20,43.0369422,19.7561911,
Oluja,1248,Bijelo Polje,20,43.0978961,19.7777702,
Pisana jela,1249,Bijelo Polje,20,43.0369422,19.7561911,
Pruška,1250,Bijelo Polje,20,43.0379264,19.7539589,
Raklja,1251,Bijelo Polje,20,43.0369422,19.7561911,
Ribarevine,1252,Bijelo Polje,20,42.9918524,19.7435417,
Rijeke,1253,Bijelo Polje,20,43.0387568,19.7423994,
Slatka,1254,Bijelo Polje,20,42.9886111,19.5986111,
Strojtanica,1255,Bijelo Polje,20,43.0704251,19.7844674,
Sutivan,1256,Bijelo Polje,20,43.037686,19.747964,
Sušica,1257,Bijelo Polje,20,43.037686,19.747964,
Ćukovac,1258,Bijelo Polje,20,43.037686,19.747964,
Ušanovići,1259,Bijelo Polje,20,43.037686,19.747964,
Centar grada,1260,Bijelo Polje,20,43.037686,19.747964,
Čampar,1261,Bijelo Polje,20,43.037686,19.747964,
Šolja,1262,Bijelo Polje,20,43.037686,19.747964,
Bečići,1263,Budva,21,42.2918681,18.8640607,
Blizikuće,1264,Budva,21,42.2918681,18.8640607,
Boreti,1265,Budva,21,42.2918681,18.8640607,
Brajići I,1266,Budva,21,42.3134805,18.8907988,
Brajici II,1267,Budva,21,42.2912349,18.849535,
Brajici III,1268,Budva,21,42.2912349,18.849535,
Brajici IV,1269,Budva,21,42.2886433,18.8395059,
Brda,1270,Budva,21,42.2255931,18.9665664,
Budva,1271,Budva,21,42.2880556,18.8425,
Buljarica I,1272,Budva,21,42.196571,18.9743668,
Buljarica II,1273,Budva,21,42.1983453,18.9646876,
Viti Do,1274,Budva,21,42.2802547,18.8833714,
Drobnići,1275,Budva,21,42.288104,18.842398,
Đenaći,1276,Budva,21,42.288104,18.842398,
Zukovica,1277,Budva,21,42.288104,18.842398,
Ilino Brdo,1278,Budva,21,42.288104,18.842398,
Kaluderac I,1279,Budva,21,42.288104,18.842398,
Kaluderac II,1280,Budva,21,42.288104,18.842398,
Katun Rezevići,1281,Budva,21,42.288104,18.842398,
Krstac,1282,Budva,21,42.221882,18.9115964,
Kuljače,1283,Budva,21,42.2780009,18.9175387,
Kuljačce Dapkovici,1284,Budva,21,42.2880556,18.8425,
Lapčići,1285,Budva,21,42.3119079,18.8581191,
Markovići,1286,Budva,21,42.3224302,18.8521777,
Markovici Duletici,1287,Budva,21,42.2880556,18.8425,
Novoselje I,1288,Budva,21,42.2157182,18.9546804,
Novoselje II,1289,Budva,21,42.2880556,18.8425,
Petrovac na Moru,1290,Budva,21,42.2055556,18.9425,
Pobori,1291,Budva,21,42.3388592,18.8254421,
Pobori Gornji,1292,Budva,21,42.288104,18.842398,
Podbabac,1293,Budva,21,42.288104,18.842398,
Podostrog I,1294,Budva,21,42.288104,18.842398,
Podostrog II,1295,Budva,21,42.288104,18.842398,
Przno I,1296,Budva,21,42.288104,18.842398,
Przno II,1297,Budva,21,42.288104,18.842398,
Prijevor I,1298,Budva,21,42.288104,18.842398,
Prijevor II,1299,Budva,21,42.288104,18.842398,
Radjenovići,1300,Budva,21,42.2542798,18.9101108,
Rijeka Rezevići,1301,Budva,21,42.2261766,18.9108536,
Sveti Stefan,1302,Budva,21,42.2515444,18.8982264,
Stanisići,1303,Budva,21,42.3003729,18.8700024,
Tudorovići,1304,Budva,21,42.2491307,18.9472518,
Cami Do,1305,Budva,21,42.2880556,18.8425,
Celobrdo,1306,Budva,21,42.2699263,18.9160531,
Cucuke,1307,Budva,21,42.2911387,18.8893133,
